[
  {
    "name": "City Rent-a-Car",
    "street": "1433 Bush St",
    "city": "San Francisco",
    "state": "CA",
    "country": "US",
    "geo": {
      "lat": 37.7884036,
      "lng": -122.4208504
    },
    "phone": "(415) 359-1331"
  },
  {
    "name": "Thrifty Car Rental",
    "street": "350 O'Farrell St",
    "city": "San Francisco",
    "state": "CA",
    "country": "US",
    "geo": {
      "lat": 37.7863186,
      "lng": -122.4105792
    },
    "phone": "(415) 788-8111"
  },
  {
    "name": "GoCar Tours",
    "street": "431 Beach St",
    "city": "San Francisco",
    "state": "CA",
    "country": "US",
    "geo": {
      "lat": 37.80722290000001,
      "lng": -122.4161326
    },
    "phone": "(415) 441-5695"
  },
  {
    "name": "Enterprise Rent-A-Car",
    "street": "727 Folsom St",
    "city": "San Francisco",
    "state": "CA",
    "country": "US",
    "geo": {
      "lat": 37.7831801,
      "lng": -122.3994078
    },
    "phone": "(415) 546-6777"
  },
  {
    "name": "Budget Rent A Car",
    "street": "5 Embarcadero Center",
    "city": "San Francisco",
    "state": "CA",
    "country": "US",
    "geo": {
      "lat": 37.7944232,
      "lng": -122.3955429
    },
    "phone": "(415) 433-3717"
  },
  {
    "name": "National Car Rental",
    "street": "750 Bush St",
    "city": "San Francisco",
    "state": "CA",
    "country": "US",
    "geo": {
      "lat": 37.7902067,
      "lng": -122.409726
    },
    "phone": "(650) 238-5302"
  },
  {
    "name": "Enterprise Rent-A-Car",
    "street": "1600 Mission St",
    "city": "San Francisco",
    "state": "CA",
    "country": "US",
    "geo": {
      "lat": 37.7724061,
      "lng": -122.4193033
    },
    "phone": "(415) 522-5900"
  },
  {
    "name": "Alamo Rent A Car",
    "street": "750 Bush St",
    "city": "San Francisco",
    "state": "CA",
    "country": "US",
    "geo": {
      "lat": 37.7902067,
      "lng": -122.409726
    },
    "phone": "(888) 826-6893"
  },
  {
    "name": "DOLLAR RENT A CAR",
    "street": "364 O'Farrell St",
    "city": "San Francisco",
    "state": "CA",
    "country": "US",
    "geo": {
      "lat": 37.7863325,
      "lng": -122.4106713
    },
    "phone": "(866) 434-2226"
  },
  {
    "name": "RelayRides",
    "street": "116 Natoma St",
    "city": "San Francisco",
    "state": "CA",
    "country": "US",
    "geo": {
      "lat": 37.787076,
      "lng": -122.399412
    },
    "phone": "(866) 735-2901"
  },
  {
    "name": "Pacific Car Rentals",
    "street": "501 W Georgia St",
    "city": "Vancouver",
    "state": "BC",
    "country": "Canada",
    "geo": {
      "lat": 49.2812405,
      "lng": -123.1161732
    },
    "phone": "+1 604-689-4506"
  },
  {
    "name": "Enterprise Rent-A-Car",
    "street": "1250 Granville St #2",
    "city": "Vancouver",
    "state": "BC",
    "country": "Canada",
    "geo": {
      "lat": 49.2764472,
      "lng": -123.1267565
    },
    "phone": "+1 604-688-5500"
  },
  {
    "name": "Riz Rent a Car & Truck",
    "street": "1361 Robson St",
    "city": "Vancouver",
    "state": "BC",
    "country": "Canada",
    "geo": {
      "lat": 49.2876165,
      "lng": -123.1294248
    },
    "phone": "+1 604-689-1231"
  },
  {
    "name": "Vancouver West Side",
    "street": "906 W Broadway #101",
    "city": "Vancouver",
    "state": "BC",
    "country": "Canada â€Ž",
    "geo": {
      "lat": 49.2630901,
      "lng": -123.1244681
    },
    "phone": "+1 604-606-2821"
  },
  {
    "name": "Enterprise Rent-A-Car ",
    "street": "3510 Fraser St",
    "city": "Vancouver",
    "state": "BC",
    "country": "Canada",
    "geo": {
      "lat": 49.2535244,
      "lng": -123.0896339
    },
    "phone": "+1 604-872-7368"
  },
  {
    "name": "Hertz Rent a Car",
    "street": "1270 Granville St",
    "city": "Vancouver",
    "state": "BC",
    "country": "Canada",
    "geo": {
      "lat": 49.2764246,
      "lng": -123.1272679
    },
    "phone": "+1 604-606-4711"
  },
  {
    "name": "Mr Rent-A-Car (Downtown) Ltd",
    "street": "968 Kingsway",
    "city": "Vancouver",
    "state": "BC",
    "country": "Canada",
    "geo": {
      "lat": 49.2540889,
      "lng": -123.084271
    },
    "phone": "+1 604-876-7777"
  },
  {
    "name": "Thrifty Car Rental",
    "street": "413 Seymour St",
    "city": "Vancouver",
    "state": "BC",
    "country": "Canada",
    "geo": {
      "lat": 49.2847411,
      "lng": -123.1134275
    },
    "phone": "+1 604-606-1666"
  },
  {
    "name": "Budget Car & Truck Rental",
    "street": "855 Kingsway",
    "city": "Vancouver",
    "state": "BC",
    "country": "Canada",
    "geo": {
      "lat": 49.2557069,
      "lng": -123.0876104
    },
    "phone": "+1 604-668-7000"
  },
  {
    "name": "Pacific Car Rentals",
    "street": "1132 W Hastings St",
    "city": "Vancouver",
    "state": "BC",
    "country": "Canada",
    "geo": {
      "lat": 49.2881493,
      "lng": -123.1205626
    },
    "phone": "+1 604-689-3994"
  },
  {
    "name": "Dollar Rent A Car",
    "street": "1659 Airport Blvd",
    "city": "San Jose",
    "state": "CA",
    "country": "US",
    "geo": {
      "lat": 37.365759,
      "lng": -121.9233569
    },
    "phone": "(866) 434-2226"
  },
  {
    "name": "Avis Rent A Car",
    "street": "1659 Airport Blvd #3",
    "city": "San Jose",
    "state": "CA",
    "country": "US",
    "geo": {
      "lat": 37.365759,
      "lng": -121.9233569
    },
    "phone": "(408) 993-2224"
  },
  {
    "name": "National Car Rental",
    "street": "1659 Airport Blvd #8",
    "city": "San Jose",
    "state": "CA",
    "country": "US",
    "geo": {
      "lat": 37.365759,
      "lng": -121.9233569
    },
    "phone": "(408) 288-4662"
  },
  {
    "name": "Alamo Rent A Car",
    "street": "2300 Airport Blvd #120",
    "city": "San Jose",
    "state": "CA",
    "country": "US",
    "geo": {
      "lat": 37.3682221,
      "lng": -121.9265461
    },
    "phone": "(888) 826-6893"
  },
  {
    "name": "Enterprise Rent-A-Car",
    "street": "598 S 1st St",
    "city": "San Jose",
    "state": "CA",
    "country": "US",
    "geo": {
      "lat": 37.3276518,
      "lng": -121.8837121
    },
    "phone": "(408) 286-4444"
  },
  {
    "name": "Club Sportiva",
    "street": "521 Charcot Ave #237",
    "city": "San Jose",
    "state": "CA",
    "country": "US",
    "geo": {
      "lat": 37.3835609,
      "lng": -121.9145028
    },
    "phone": "(866) 719-1600"
  },
  {
    "name": "Service Rent-A-Car Inc",
    "street": "698 S 1st St",
    "city": "San Jose",
    "state": "CA",
    "country": "US",
    "geo": {
      "lat": 37.325977,
      "lng": -121.8823558
    },
    "phone": "(408) 554-6351"
  },
  {
    "name": "Budget Rent A Car",
    "street": "1659 Airport Blvd #3",
    "city": "San Jose",
    "state": "CA",
    "country": "US",
    "geo": {
      "lat": 37.365759,
      "lng": -121.9233569
    },
    "phone": "(408) 286-7850"
  },
  {
    "name": "Hertz Rent A Car",
    "street": "1659 Airport Blvd",
    "city": "San Jose",
    "state": "CA",
    "country": "US",
    "geo": {
      "lat": 37.365759,
      "lng": -121.9233569
    },
    "phone": "(408) 450-6000"
  },
  {
    "name": "Enterprise Rent-A-Car",
    "street": "1485 Kerley Dr",
    "city": "San Jose",
    "state": "CA",
    "country": "US",
    "geo": {
      "lat": 37.363965,
      "lng": -121.9094736
    },
    "phone": "(408) 437-1001"
  },
  {
    "name": "Enterprise Rent-A-Car",
    "street": "445 SW Pine St",
    "city": "Portland",
    "state": "OR",
    "country": "US",
    "geo": {
      "lat": 45.52209510000001,
      "lng": -122.6749466
    },
    "phone": "(503) 275-5359"
  },
  {
    "name": "Enterprise Rent-A-Car",
    "street": "1623 W Burnside St",
    "city": "Portland",
    "state": "OR",
    "country": "US",
    "geo": {
      "lat": 45.52318,
      "lng": -122.6878289
    },
    "phone": "(503) 220-8200"
  },
  {
    "name": "Enterprise Rent-A-Car",
    "street": "8360 SW Barbur Blvd",
    "city": "Portland",
    "state": "OR",
    "country": "US",
    "geo": {
      "lat": 45.4640728,
      "lng": -122.6998026
    },
    "phone": "(503) 977-7700"
  },
  {
    "name": "Enterprise Rent-A-Car",
    "street": "611 E Burnside St",
    "city": "Portland",
    "state": "OR",
    "country": "US",
    "geo": {
      "lat": 45.5232538,
      "lng": -122.6593052
    },
    "phone": "(503) 230-1212"
  },
  {
    "name": "Enterprise Rent-A-Car",
    "street": "2740 NE Sandy Blvd",
    "city": "Portland",
    "state": "OR",
    "country": "US",
    "geo": {
      "lat": 45.5286503,
      "lng": -122.6375496
    },
    "phone": "(503) 963-1795"
  },
  {
    "name": "Budget Rent-A-Car",
    "street": "3400 NE Columbia Blvd",
    "city": "Portland",
    "state": "OR",
    "country": "US",
    "geo": {
      "lat": 45.5728696,
      "lng": -122.6292638
    },
    "phone": "(503) 288-2985"
  },
  {
    "name": "Hertz Rent A Car",
    "street": "1441 NE 2nd Ave",
    "city": "Portland",
    "state": "OR",
    "country": "US",
    "geo": {
      "lat": 45.5337763,
      "lng": -122.664146
    },
    "phone": "(503) 282-2644"
  },
  {
    "name": "Avis Rent A Car",
    "street": "330 SW Washington St",
    "city": "Portland",
    "state": "OR",
    "country": "US",
    "geo": {
      "lat": 45.5195197,
      "lng": -122.675584
    },
    "phone": "(503) 227-0220"
  },
  {
    "name": "Dollar Rent a Car",
    "street": "132 NW Broadway",
    "city": "Portland",
    "state": "OR",
    "country": "US",
    "geo": {
      "lat": 45.5243455,
      "lng": -122.6772406
    },
    "phone": "(503) 228-3540"
  },
  {
    "name": "Crown Auto Rental",
    "street": "4826 NE 105 Ave",
    "city": "Portland",
    "state": "OR",
    "country": "US",
    "geo": {
      "lat": 45.55833620000001,
      "lng": -122.5545602
    },
    "phone": "(503) 230-1103"
  }
]